
[
	{
	"id":1,
	"city":"Tokyo",
	"country":"JP",
	"coord":{"lon":10.51667,"lat":57.383331}
	},
	{
	"id":2,
	"city":"Seoul",
	"country":"KR",
	"coord":{"lon":12.57324,"lat":55.822498}
	},
	{
	"id":3,
	"city":"Berlin",
	"country":"DE",
	"coord":{"lon":12.55787,"lat":55.865688}
	},
	{
	"id":4,
	"city":"London",
	"country":"GB",
	"coord":{"lon":25.283331,"lat":41.400002}
	},
	{
	"id":5,
	"city":"Paris",
	"country":"FR",
	"coord":{"lon":25.283331,"lat":41.400002}
	},
	{
	"id":6,
	"city":"Rom",
	"country":"IT",
	"coord":{"lon":23.966669,"lat":54.916672}
	}
]




















/*
const readline = require('readline');

const rl = readline.createInterface({
    input: process.stdin,
    output: process.stdout
});

console.log("Bitte suchen Sie eine der folgenden St채dte aus:");
console.log("");
console.log("Tokyo, Japan");
console.log("Seoul, Korea");
console.log("Berlin, Deutschland");
console.log("London, England");
console.log("Paris, Frankreich");
console.log("Rom, Italien");
console.log("");


const question1 = "Bitte geben Sie ein Stadt ein: ";

async function mainFlow() {
    let city1 = await askAnything(question1);

	console.log("");
	console.log(`Sie haben ausgew채hlt: ${city1}`); 
	console.log("");
	console.log("Vielen Dank. Sie erhalten in k체rze alle Wetter Daten.");
    console.log("Auf Wiedersehen!");
    console.log("");

    rl.close();
    process.exit();
}


function askAnything(question) {
    return new Promise((resolve, reject) => {
        if (question == null) {
            reject(new Error("Sie m체ssen eine Stadt angeben!"));
        }
        else {
            rl.question(question, (ans) => resolve(ans));
        }
    })
}

mainFlow();

//DATEN

const fetch = require("node-fetch");

let city = {    
    "cities" :[
        {
        "id":1,
        "city":"Tokyo",
        "country":"JP",
        "coord":{"lon":139.69,"lat":35.69}
        },
        {
        "id":2,
        "city":"Seoul",
        "country":"KR",
        "coord":{"lon":126.98,"lat":37.57}
        },
        {
        "id":3,
        "city":"Berlin",
        "country":"DE",
        "coord":{"lon":13.41,"lat":52.52}
        },
        {
        "id":4,
        "city":"London",
        "country":"GB",
        "coord":{"lon":-0.13,"lat":51.51}
        },
        {
        "id":5,
        "city":"Paris",
        "country":"FR",
        "coord":{"lon":2.35,"lat":48.85}
        },
        {
        "id":6,
        "city":"Rom",
        "country":"IT",
        "coord":{"lon":12.48,"lat":41.89}
        }
    ]}
// req res falsch existiert nicht
let city1 = null;
for(let i = 0; i<city.cities.length; i++){
    if(city.cities[i].id == req.params.id){
        city1 = city.cities[i];
    }
}
if (city1 == null){
    res.status(404).send("Stadt nicht gefunden!");
}else {
        res.json(city1);
}



let url = 'http://api.openweathermap.org/data/2.5/weather?q='+ city1 +'&appid=09d42d940cc979f914409599ef6b7251'

fetch(url)
    .then(function(response) {
        return response.json();
    })
    .then((out) => {
        console.log('Hier die JSON!', out);
    })
    .catch(function(error) {
		// This is where you run code if the server returns any errors
		res.status(404).send("Das Wetter konnte nicht angezeigt werden.");
		console.log(error);
    });
   
*/